[{"lat":"33.5651828","lng":"-81.7338669","id":6215625,"name":"1 Chance Auto Accessories","phone":"+1 803-226-9677","email":"1chanceautoacc@gmail.com","web":"http:\/\/www.1chanceautoaccessories.com","webdisplay":"1chanceautoaccessories.com","tagsvalue":"Automotive","tags":[{"tag":"Automotive"}],"address":"1103 Richland Avenue W","country":"USA","state":"SC","city":"Aiken","postal":"29801","priority":1,"apply_to_type":1},{"lat":"39.962725","lng":"-86.1318467","id":6215630,"name":"DT Services Window Tinting LLC","phone":"+1 317-493-8468","email":"tint4u@gmail.com","web":"http:\/\/www.carmeltint.com","webdisplay":"www.carmeltint.com","tagsvalue":"Automotive,Paint Protection","tags":[{"tag":"Automotive"},{"tag":"Paint Protection"}],"address":"1121 3rd Avenue SW","country":"USA","state":"IN","city":"Carmel","postal":"46032","priority":1,"apply_to_type":1},{"lat":"31.1925961","lng":"-85.3792148","id":6215631,"name":"Stewart’s Window Tinting","phone":"+1 334-305-0253","email":"stewartswindowtinting@yahoo.com","tagsvalue":"Automotive,Architectural","tags":[{"tag":"Automotive"},{"tag":"Architectural"}],"address":"1797 Ross Clark Circle","country":"USA","state":"AL","city":"Dothan","postal":"36301","priority":1,"apply_to_type":1},{"lat":"41.4264374","lng":"-87.3518343","id":6215757,"name":"Fade to Black Tint & Customs","phone":"+1 219-323-3949","email":"fadetoblackcp@yahoo.com","tagsvalue":"Automotive,Architectural,Vinyl Wrap,Paint Protection,Detailing","tags":[{"tag":"Automotive"},{"tag":"Architectural"},{"tag":"Vinyl Wrap"},{"tag":"Paint Protection"},{"tag":"Detailing"}],"address":"1003 E Summit Street","address2":"Unit 4","country":"USA","state":"IN","city":"Crown Point","postal":"46307","priority":1,"apply_to_type":1},{"lat":"36.7208786","lng":"-86.5605178","id":6215758,"name":"Downey Detailing","phone":"+1 270-776-3914","email":"jodie.downey1015@gmail.com","tagsvalue":"Automotive,Architectural,Detailing","tags":[{"tag":"Automotive"},{"tag":"Architectural"},{"tag":"Detailing"}],"address":"801 East Cedar Street","country":"USA","state":"KY","city":"Franklin","postal":"42134","priority":1,"apply_to_type":1},{"lat":"19.3048112","lng":"-81.36636109999999","id":6217364,"name":"Cayman Window Tinting","phone":"+1 345-939-7343","email":"caymanwindowtinting@yahoo.com","web":"http:\/\/www.caymanwindowtinting.com","webdisplay":"www.caymanwindowtinting.com","tagsvalue":"Automotive,Architectural,Paint Protection,Vinyl Wrap,Detailing,Mobile Service","tags":[{"tag":"Automotive"},{"tag":"Architectural"},{"tag":"Paint Protection"},{"tag":"Vinyl Wrap"},{"tag":"Detailing"},{"tag":"Mobile Service"}],"address":"Sparky's Drive, 23 Lancaster Crescent","country":"Cayman Islands","city":"George Town","postal":"1345","priority":1,"apply_to_type":1},{"lat":"39.1729469","lng":"-78.1653056","id":6218012,"name":"Winchester Auto Radio","phone":"+1 540-662-1724","email":"wincautoradio@yahoo.com","web":"http:\/\/www.wincautoradio.com","webdisplay":"www.wincautoradio.com","tagsvalue":"Automotive,Architectural,Mobile Service","tags":[{"tag":"Automotive"},{"tag":"Architectural"},{"tag":"Mobile Service"}],"address":"263 Millwood Avenue","country":"USA","state":"VA","city":"Winchester","postal":"22601","priority":1,"apply_to_type":1},{"lat":"35.4672189","lng":"-86.0714785","id":6223124,"name":"Tint Tek","phone":"+1 931-581-1144","email":"brandonumbarger99@gmail.com","tagsvalue":"Automotive,Architectural","tags":[{"tag":"Automotive"},{"tag":"Architectural"}],"address":"1600 Hillsboro Blvd","country":"USA","state":"TN","city":"Manchester","postal":"37355","priority":1,"apply_to_type":1},{"lat":"41.782267","lng":"-85.5440915","id":6223126,"name":"MG Customs LLC","phone":"+1 260-585-0341","email":"grabermaynard92@yahoo.com","tagsvalue":"Automotive,Paint Protection,Mobile Service","tags":[{"tag":"Automotive"},{"tag":"Paint Protection"},{"tag":"Mobile Service"}],"address":"69879 Huff Road","country":"USA","state":"MI","city":"White Pigeon","postal":"49099","priority":1,"apply_to_type":1},{"lat":"37.8222216","lng":"-87.5799267","id":6223127,"name":"McCollums Tint & Accessories","phone":"+1 270-724-0747","email":"mccollumstint@yahoo.com","tagsvalue":"Automotive,Architectural","tags":[{"tag":"Automotive"},{"tag":"Architectural"}],"address":"709 Atkinson Street","country":"USA","state":"KY","city":"Henderson","postal":"42420","priority":1,"apply_to_type":1},{"lat":"39.5252388","lng":"-119.7424682","id":6223129,"name":"Bad Habitz Kustoms","phone":"+1 775-772-9038","email":"alantran1207@att.net","tagsvalue":"Automotive,Architectural,Vinyl Wrap,Detailing,Mobile Service","tags":[{"tag":"Automotive"},{"tag":"Architectural"},{"tag":"Vinyl Wrap"},{"tag":"Detailing"},{"tag":"Mobile Service"}],"address":"27 E Freeport Blvd","country":"USA","state":"NV","city":"Sparks","postal":"89431","priority":1,"apply_to_type":1},{"lat":"37.3670759","lng":"-121.8889948","id":6223130,"name":"Best Auto Glass and Tint ","phone":"+1 408-714-9320","email":"bestglassandtint@gmail.com","web":"http:\/\/www.bestautoglass.net","webdisplay":"www.bestautoglass.net","tagsvalue":"Automotive","tags":[{"tag":"Automotive"}],"address":"903 Commercial Street","address2":"Suite 10","country":"USA","state":"CA","city":"San Jose","postal":"95112","priority":1,"apply_to_type":1},{"lat":"35.858526","lng":"-86.4080377","id":6223133,"name":"Kool Tintz Window Tinting ","phone":"+1 615-922-9114","email":"tintman22@yahoo.com","tagsvalue":"Automotive,Architectural","tags":[{"tag":"Automotive"},{"tag":"Architectural"}],"address":"1112 W College Street","country":"USA","state":"TN","city":"Murfreesboro","postal":"37129","priority":1,"apply_to_type":1},{"lat":"26.1612114","lng":"-81.7530432","id":6223898,"name":"Eclipse Tinting","phone":"+1 239-262-4255","email":"windowtintingfl@hotmail.com","web":"http:\/\/www.windowtintingfl.com","webdisplay":"www.windowtintingfl.com","tagsvalue":"Automotive,Architectural,Paint Protection,Mobile Service","tags":[{"tag":"Automotive"},{"tag":"Architectural"},{"tag":"Paint Protection"},{"tag":"Mobile Service"}],"address":"4627 Enterprise Avenue","address2":"Unit A","country":"USA","state":"FL","city":"Naples","postal":"34104","priority":1,"apply_to_type":1},{"lat":"39.4979001","lng":"-75.0425649","id":6230943,"name":"Clear Choice Auto Glass","phone":"+1 609-774-7909","email":"clearchoiceautoglass@outlook.com","tagsvalue":"Automotive,Architectural,Vinyl Wrap,Detailing","tags":[{"tag":"Automotive"},{"tag":"Architectural"},{"tag":"Vinyl Wrap"},{"tag":"Detailing"}],"address":"754 N Delsea Drive","country":"USA","state":"NJ","city":"Vineland","postal":"08360","priority":1,"apply_to_type":1},{"lat":"42.3582931","lng":"-87.87867539999999","id":6230946,"name":"CR tinting ","phone":"+1 224-441-4885","email":"chris-rea@sbcglobal.net","tagsvalue":"Automotive,Vinyl Wrap,Detailing,Mobile Service","tags":[{"tag":"Automotive"},{"tag":"Vinyl Wrap"},{"tag":"Detailing"},{"tag":"Mobile Service"}],"address":"3061 Washington Street","country":"USA","state":"IL","city":"Waukegan","postal":"60087","priority":1,"apply_to_type":1},{"lat":"39.741473","lng":"-75.5875231","id":6363474,"name":"CC Kustomz LLC","phone":"+1 302-438-1494","email":"cckustomzllc@gmail.com","tagsvalue":"Automotive,Vinyl Wrap","tags":[{"tag":"Automotive"},{"tag":"Vinyl Wrap"}],"address":"612 N. Colonial Avenue","address2":"Unit H","country":"USA","state":"DE","city":"Wilmington","postal":"19805","priority":1,"apply_to_type":1},{"lat":"41.5227507","lng":"-90.43179649999999","id":6562014,"name":"Victory Lap Auto Restyling","phone":"+1-309-281-1363","email":"roycearnold3@yahoo.com","tagsvalue":"Automotive,Architectural,Paint Protection,Vinyl Wrap,Mobile Service","tags":[{"tag":"Automotive"},{"tag":"Architectural"},{"tag":"Paint Protection"},{"tag":"Vinyl Wrap"},{"tag":"Mobile Service"}],"address":"1016 13th Street","country":"USA","state":"IL","city":"East Moline","postal":"61244","priority":1,"apply_to_type":1},{"lat":"37.6252715","lng":"-77.51539559999999","id":6562015,"name":"Fleetwood Detailing LLC","phone":"+1 757-319-1792","email":"detailingfleetwood@gmail.com","web":"http:\/\/fdetailing.com","webdisplay":"fdetailing.com","tagsvalue":"Automotive,Detailing,Mobile Service","tags":[{"tag":"Automotive"},{"tag":"Detailing"},{"tag":"Mobile Service"}],"address":"7214 Stoneman Road","country":"USA","state":"VA","city":"Henrico","postal":"23228","priority":1,"apply_to_type":1},{"lat":"26.1612114","lng":"-81.7530432","id":6755008,"name":"Eclipse Tinting & Paint Protection","phone":"+1 239-262-4258","email":"windowtintingfl@hotmail.com","web":"http:\/\/www.windowtintingfl.com","webdisplay":"www.windowtintingfl.com","tagsvalue":"Automotive,Architectural,Paint Protection,Mobile Service","tags":[{"tag":"Automotive"},{"tag":"Architectural"},{"tag":"Paint Protection"},{"tag":"Mobile Service"}],"address":"4627 Enterprise Avenue","address2":"Unit A","country":"USA","state":"FL","city":"Naples","postal":"34104","priority":1,"apply_to_type":1},{"lat":"39.962725","lng":"-86.1318467","id":6755009,"name":"Carmeltint.com ","phone":"+1 317-493-8468","email":"tint4u@gmail.com","web":"http:\/\/Carmeltint.com","webdisplay":"Carmeltint.com","tagsvalue":"Automotive,Paint Protection","tags":[{"tag":"Automotive"},{"tag":"Paint Protection"}],"address":"1121 3rd Avenue SW","country":"USA","state":"IN","city":"Carmel","postal":"46032","priority":1,"apply_to_type":1},{"lat":"39.7296105","lng":"-84.0580114","id":6755010,"name":"Tint Masters Window Tinting LLC","phone":"+1 937-471-8468","email":"Tintmasters@outlook.com","web":"http:\/\/www.GetTintNow.com","webdisplay":"www.GetTintNow.com","tagsvalue":"Automotive,Architectural","tags":[{"tag":"Automotive"},{"tag":"Architectural"}],"address":"1363 N Fairfield Road","country":"USA","state":"OH","city":"Beavercreek","postal":"45432","priority":1,"apply_to_type":1},{"lat":"35.783966","lng":"-80.917847","id":6755011,"name":"The Tint Shop By Aldo","phone":"+1 704-500-3056","email":"tintbyaldo@gmail.com","tagsvalue":"Automotive,Architectural","tags":[{"tag":"Automotive"},{"tag":"Architectural"}],"address":"1802 Newton Drive","country":"USA","state":"NC","city":"Statesville","postal":"28677","priority":1,"apply_to_type":1},{"lat":"38.8860766","lng":"-90.0832731","id":6755012,"name":"Mobile Accessories","phone":"+1 618-259-7875","email":"jfninja@gmail.com","tagsvalue":"Automotive,Architectural","tags":[{"tag":"Automotive"},{"tag":"Architectural"}],"address":"15 W Airline Drive","country":"USA","state":"IL","city":"East Alton","postal":"62024","priority":1,"apply_to_type":1},{"lat":"40.2496736","lng":"-92.5688703","id":6755013,"name":"Lloyd’s Tint Shop LLC","phone":"+1 660-216-5296","email":"kvtinting@gmail.com","web":"http:\/\/www.lloydstintshop.com","webdisplay":"www.lloydstintshop.com","tagsvalue":"Automotive,Architectural,Vinyl Wrap,Detailing","tags":[{"tag":"Automotive"},{"tag":"Architectural"},{"tag":"Vinyl Wrap"},{"tag":"Detailing"}],"address":"25221 Benton Way","country":"USA","state":"MO","city":"Kirksville","postal":"63501","priority":1,"apply_to_type":1},{"lat":"37.2667253","lng":"-81.2220634","id":6755014,"name":"Alberts Window Tinting LLC","phone":"+1 304-887-6219","email":"alberts.window.tinting.of.wv@gmail.com","tagsvalue":"Automotive,Architectural,Detailing","tags":[{"tag":"Automotive"},{"tag":"Architectural"},{"tag":"Detailing"}],"address":"704 Bland Street","address2":"Suite 301","country":"USA","state":"WV","city":"Bluefield","postal":"24701","priority":1,"apply_to_type":1},{"lat":"37.8222216","lng":"-87.5799267","id":6759538,"name":"McCollums Tint & Accessories","phone":"+1 270-724-0747","email":"mccollumstint@yhoo.com","tagsvalue":"Automotive,Architectural","tags":[{"tag":"Automotive"},{"tag":"Architectural"}],"address":"709 Atkinson Street","country":"USA","state":"KY","city":"Henderson","postal":"42420","priority":1,"apply_to_type":1},{"lat":"39.2789159","lng":"-80.2995253","id":6942289,"name":"Shade9 LLC","phone":"+1 304-710-0380","email":"shade9llc@gmail.com","web":"http:\/\/shade9tint.com","webdisplay":"shade9tint.com","tagsvalue":"Automotive,Architectural,Paint Protection,Vinyl Wrap,Mobile Service","tags":[{"tag":"Automotive"},{"tag":"Architectural"},{"tag":"Paint Protection"},{"tag":"Vinyl Wrap"},{"tag":"Mobile Service"}],"address":"1867 E Pike Street","country":"USA","state":"WV","city":"Clarksburg","postal":"26301","priority":1,"apply_to_type":1},{"lat":"42.293685","lng":"-72.2105703","id":7015950,"name":"Steve and Sons Auto Detailing Inc.","phone":"+1 413-967-8072","email":"natemansfield86@gmail.com","web":"http:\/\/steveandsonsautodetailing.com","webdisplay":"steveandsonsautodetailing.com","tagsvalue":"Automotive,Paint Protection,Detailing","tags":[{"tag":"Automotive"},{"tag":"Paint Protection"},{"tag":"Detailing"}],"address":"187 Gilbertville Road","country":"USA","state":"MA","city":"Ware","postal":"01082","priority":1,"apply_to_type":1},{"lat":"34.3413192","lng":"-86.3078216","id":7050161,"name":"Ramsey Auto Tint","phone":"+1 256-302-3826","email":"bamajram@gmail.com","tagsvalue":"Automotive","tags":[{"tag":"Automotive"}],"address":"1716 Blount Avenue","country":"USA","state":"AL","city":"Guntersville","postal":"35976","priority":1,"apply_to_type":1},{"lat":"38.7842743","lng":"-94.5318526","id":7078312,"name":"Anthony’s Tinting","phone":"+1 816-560-1119","email":"anthonystinting@gmail.com","web":"http:\/\/www.anthonystinting.com","webdisplay":"www.anthonystinting.com","tagsvalue":"Automotive,Architectural","tags":[{"tag":"Automotive"},{"tag":"Architectural"}],"address":"18715 S State Route Y","country":"USA","state":"MO","city":"Belton","postal":"64012","priority":1,"apply_to_type":1},{"lat":"41.98391640000001","lng":"-76.5230134","id":7132332,"name":"CT Graphic and Designs","phone":"+1 570-886-3147","email":"ctgraphicanddesigns@yahoo.com","tagsvalue":"Automotive,Architectural,Paint Protection,Vinyl Wrap","tags":[{"tag":"Automotive"},{"tag":"Architectural"},{"tag":"Paint Protection"},{"tag":"Vinyl Wrap"}],"address":"110 Stedman Street","country":"USA","state":"PA","city":"Sayre","postal":"18840","priority":1,"apply_to_type":1},{"lat":"42.337384","lng":"-87.91311979999999","id":7146565,"name":"MB Custom Car Care","phone":"+1 224-321-0976","email":"mbcustomcarcare@gmail.com","tagsvalue":"Automotive,Paint Protection,Vinyl Wrap,Mobile Service","tags":[{"tag":"Automotive"},{"tag":"Paint Protection"},{"tag":"Vinyl Wrap"},{"tag":"Mobile Service"}],"address":"1245 S Candlestick Way","country":"USA","state":"IL","city":"Waukegan","postal":"60085","priority":1,"apply_to_type":1},{"lat":"25.1902275","lng":"55.3802032","id":7175409,"name":"Zero Degrees Car Care LLC.","phone":"+971 56 132 2232","email":"mssm_99@hotmail.com","tagsvalue":"Automotive,Paint Protection,Vinyl Wrap,Detailing","tags":[{"tag":"Automotive"},{"tag":"Paint Protection"},{"tag":"Vinyl Wrap"},{"tag":"Detailing"}],"address":"9th Street","country":"United Arab Emirates","state":"Dubayy (Dubai)","city":"Nadd Al Hamar","postal":"00000","priority":1,"apply_to_type":1},{"lat":"27.8368124","lng":"-82.37279769999999","id":7217601,"name":"Sunrise Tint Studio ","phone":"+1 813-842-5360","email":"sunrisetintstudio@gmail.com","web":"http:\/\/www.sunrisetint.com","webdisplay":"www.sunrisetint.com","tagsvalue":"Automotive,Architectural,Mobile Service","tags":[{"tag":"Automotive"},{"tag":"Architectural"},{"tag":"Mobile Service"}],"address":"7503 Northern Lights Drive","country":"USA","state":"FL","city":"Gibsonton","postal":"33534","priority":1,"apply_to_type":1},{"lat":"33.93039710000001","lng":"-87.81198619999999","id":7240394,"name":"Knee High Designs","phone":"+1 205-412-0639","email":"kneehighdesigns@gmail.com","tagsvalue":"Automotive,Architectural","tags":[{"tag":"Automotive"},{"tag":"Architectural"}],"address":"382 Bankhead Highway","country":"USA","state":"AL","city":"Winfield","postal":"35594","priority":1,"apply_to_type":1},{"lat":"34.8857011","lng":"-82.15561579999999","id":7240395,"name":"All-Star Tint","phone":"+1 864-814-6315","email":"suladensxiong804@gmail.com","web":"http:\/\/www.allstarautomotivetint.com","webdisplay":"www.allstarautomotivetint.com","tagsvalue":"Automotive","tags":[{"tag":"Automotive"}],"address":"310 Business Pkwy","address2":"Suite E","country":"USA","state":"SC","city":"Greer","postal":"29651","priority":1,"apply_to_type":1},{"lat":"27.5581396","lng":"-82.5556108","id":7257557,"name":"Fine Line Window Tint","phone":"+1 941-526-5986","email":"finelinewindowtint@yahoo.com","web":"http:\/\/finelinewindowtint.com","webdisplay":"finelinewindowtint.com","tagsvalue":"Automotive","tags":[{"tag":"Automotive"}],"address":"814 49th Street E","country":"USA","state":"FL","city":"Palmetto","postal":"34221","priority":1,"apply_to_type":1},{"lat":"30.8824884","lng":"-93.2883686","id":7262824,"name":"Relentless Tint","phone":"+1 337-202-9889","email":"Corey.louisiana@gmail.com","web":"http:\/\/www.relentlesstint.com","webdisplay":"www.relentlesstint.com","tagsvalue":"Automotive,Architectural,Mobile Service","tags":[{"tag":"Automotive"},{"tag":"Architectural"},{"tag":"Mobile Service"}],"address":"2010 Glen Haven Street","country":"USA","state":"LA","city":"Deridder","postal":"70634","priority":1,"apply_to_type":1},{"lat":"41.468144","lng":"-85.9441272","id":7269542,"name":"Blackout Tinting","phone":"+1 574-596-9921","tagsvalue":"Automotive","tags":[{"tag":"Automotive"}],"address":"70761 County Road 11","country":"USA","state":"IN","city":"Nappanee","postal":"46550","priority":1,"apply_to_type":1},{"lat":"33.930308","lng":"-86.02367629999999","id":7273098,"name":"Elite Car Spa LLC","phone":"+1 256-485-1703","email":"elitecarspa@yahoo.com","web":"https:\/\/www.elitecarspallc.com","webdisplay":"www.elitecarspallc.com","tagsvalue":"Automotive,Architectural,Paint Protection,Detailing","tags":[{"tag":"Automotive"},{"tag":"Architectural"},{"tag":"Paint Protection"},{"tag":"Detailing"}],"address":"1599 Highway 77","country":"USA","state":"AL","city":"Southside","postal":"35907","priority":1,"apply_to_type":1},{"lat":"36.2018649","lng":"-115.282161","id":7310043,"name":"Tint and Detail Masters","phone":"+1 702-762-1824","email":"mor9411@gmail.com","tagsvalue":"Automotive,Detailing,Mobile Service","tags":[{"tag":"Automotive"},{"tag":"Detailing"},{"tag":"Mobile Service"}],"address":"2251 N Rampart Blvd","address2":"344","country":"USA","state":"NV","city":"Las Vegas","postal":"89128","priority":1,"apply_to_type":1},{"lat":"39.4116229","lng":"-74.56160390000001","id":7313071,"name":"JP Window Tints","phone":"+1 609-992-7282","email":"juanpablo-p19@hotmail.com","tagsvalue":"Automotive,Mobile Service","tags":[{"tag":"Automotive"},{"tag":"Mobile Service"}],"address":"223 Coolidge Avenue","country":"USA","state":"NJ","city":"Egg Harbor TWP","postal":"08234","priority":1,"apply_to_type":1},{"lat":"40.1130254","lng":"-80.96845019999999","id":7313743,"name":"Becks Blackout Tinting","phone":"+1 740-827-2063","email":"becksblackouttint@gmail.com","web":"http:\/\/becksblackout.com","webdisplay":"becksblackout.com","tagsvalue":"Automotive,Architectural,Mobile Service","tags":[{"tag":"Automotive"},{"tag":"Architectural"},{"tag":"Mobile Service"}],"address":"45639 Crabapple Road","country":"USA","state":"OH","city":"St. Clairsville","postal":"43950","priority":1,"apply_to_type":1},{"lat":"28.563364","lng":"-81.50336209999999","id":7313746,"name":"Shade Queen Tinting","phone":"+1 386-249-1490","email":"shadequeentinting@gmail.com","web":"http:\/\/www.shadequeentinting.com","webdisplay":"www.shadequeentinting.com","tagsvalue":"Automotive,Architectural,Mobile Service","tags":[{"tag":"Automotive"},{"tag":"Architectural"},{"tag":"Mobile Service"}],"address":"Dess Drive","country":"USA","state":"FL","city":"Orlando","postal":"32818","priority":1,"apply_to_type":1},{"lat":"40.488961","lng":"-111.9930911","id":7334285,"name":"Mohawk Tinting ","phone":"+1 801-635-5681","email":"mohawkmobiletint@gmail.com","web":"https:\/\/mohawkmobiletint.com\/","webdisplay":"mohawkmobiletint.com\/","tagsvalue":"Automotive,Architectural,Paint Protection,Vinyl Wrap,Detailing,Mobile Service","tags":[{"tag":"Automotive"},{"tag":"Architectural"},{"tag":"Paint Protection"},{"tag":"Vinyl Wrap"},{"tag":"Detailing"},{"tag":"Mobile Service"}],"address":"14439 South Ashgrove Court","country":"USA","state":"UT","city":"Herriman","postal":"84096","priority":1,"apply_to_type":1},{"lat":"39.4185411","lng":"-74.3695377","id":7485482,"name":"Jersey Shore Tint LLC ","phone":"+1 609-328-4343","email":"crose6994@gmail.com","tagsvalue":"Automotive,Architectural,Mobile Service","tags":[{"tag":"Automotive"},{"tag":"Architectural"},{"tag":"Mobile Service"}],"address":"210 Washington Drive","country":"USA","state":"NJ","city":"Brigantine","postal":"08203","priority":1,"apply_to_type":1},{"lat":"34.9776229","lng":"-86.6638236","id":7485484,"name":"12 Volt Techs & Tint Inc.","phone":"+1 256-990-2857","email":"eric.jean@12volttechs.com","web":"http:\/\/www.12volttechsandtint.com","webdisplay":"www.12volttechsandtint.com","tagsvalue":"Automotive,Architectural","tags":[{"tag":"Automotive"},{"tag":"Architectural"}],"address":"2381 Elkwood Section Road","country":"USA","state":"AL","city":"Hazel Green","postal":"35750","priority":1,"apply_to_type":1},{"lat":"39.2680943","lng":"-84.2600094","id":7490891,"name":"Autoshine","phone":"+1 513-262-4470","email":"autoshinecincinnati@gmail.com","web":"https:\/\/autoshinecincinnati.com\/","webdisplay":"autoshinecincinnati.com\/","tagsvalue":"Automotive,Detailing","tags":[{"tag":"Automotive"},{"tag":"Detailing"}],"address":"309 W Loveland Avenue","country":"USA","state":"OH","city":"Loveland","postal":"45140","priority":1,"apply_to_type":1},{"lat":"41.7233502","lng":"-83.63903069999999","id":7584317,"name":"ttowntintz","phone":"+1 419-319-7239","email":"ttowntintz@gmail.com","tagsvalue":"Automotive,Architectural,Paint Protection,Vinyl Wrap","tags":[{"tag":"Automotive"},{"tag":"Architectural"},{"tag":"Paint Protection"},{"tag":"Vinyl Wrap"}],"address":"5931 Merle Street","country":"USA","state":"OH","city":"Toledo","postal":"43623","priority":1,"apply_to_type":1},{"lat":"31.8957175","lng":"-106.4106365","id":7637612,"name":"ProAudio","phone":"+1 915-757-0404","email":"pro.audio@live.com","web":"http:\/\/proaudioelp.com","webdisplay":"proaudioelp.com","tagsvalue":"Automotive","tags":[{"tag":"Automotive"}],"address":"9888 Dyer Streeet","country":"USA","state":"TX","city":"El Paso","postal":"79924","priority":1,"apply_to_type":1},{"lat":"21.3759557","lng":"-158.0215647","id":7641459,"name":"KnH Tinting LLC","phone":"+1 808-469-5638","email":"ptkebato@hotmail.com","tagsvalue":"Automotive,Architectural","tags":[{"tag":"Automotive"},{"tag":"Architectural"}],"address":"94-155 Leo’ole Street","address2":"Suite #304","country":"USA","state":"HI","city":"Waipahu","postal":"96797","priority":1,"apply_to_type":1},{"lat":"35.5208651","lng":"-78.3042303","id":7742862,"name":"Xtreme Shades","phone":"+1 919-300-1557","email":"xtremeshadeswindowtinting@gmail.com","web":"http:\/\/www.xtremeshades.com","webdisplay":"www.xtremeshades.com","tagsvalue":"Automotive,Architectural,Paint Protection,Vinyl Wrap,Mobile Service","tags":[{"tag":"Automotive"},{"tag":"Architectural"},{"tag":"Paint Protection"},{"tag":"Vinyl Wrap"},{"tag":"Mobile Service"}],"address":"27 Noble Street","country":"USA","state":"NC","city":"Smithfield","postal":"27577","priority":1,"apply_to_type":1},{"lat":"43.5827027","lng":"-116.2891173","id":7772141,"name":"Starlit Tint","phone":"+1 208-991-6086","email":"Starlittint@gmail.com","tagsvalue":"Automotive,Architectural,Vinyl Wrap","tags":[{"tag":"Automotive"},{"tag":"Architectural"},{"tag":"Vinyl Wrap"}],"address":"8604 W Small Creek Drive","country":"USA","state":"ID","city":"Boise","postal":"83709","priority":1,"apply_to_type":1},{"lat":"36.1633687","lng":"-115.0995952","id":7775591,"name":"Kingdom Tinting LLC ","phone":"+1 702-237-1196","email":"kingdomtint@yahoo.com","web":"http:\/\/www.kingdomtint.com","webdisplay":"www.kingdomtint.com","tagsvalue":"Automotive","tags":[{"tag":"Automotive"}],"address":"3340 Sunrise Ave","address2":"Suite #101","country":"USA","state":"NV","city":"las vegas","postal":"89101","priority":1,"apply_to_type":1},{"lat":"36.9749447","lng":"-120.0214704","id":7796913,"name":"Optimum Tint","phone":"+1 559-363-2009","email":"optimumtintinfo@gmail.com","web":"http:\/\/www.optimumtint.com","webdisplay":"www.optimumtint.com","tagsvalue":"Automotive,Vinyl Wrap,Mobile Service","tags":[{"tag":"Automotive"},{"tag":"Vinyl Wrap"},{"tag":"Mobile Service"}],"address":"28810 Ave 15 1\/2 Street 1","country":"USA","state":"CA","city":"Madera","postal":"93636","priority":1,"apply_to_type":1},{"lat":"36.6413306","lng":"-87.3535598","id":7820076,"name":"Joe's Window Tinting","phone":"+1 931-896-6453","email":"Joedix36@gmail.com","tagsvalue":"Automotive,Architectural,Paint Protection,Mobile Service,Vinyl Wrap","tags":[{"tag":"Automotive"},{"tag":"Architectural"},{"tag":"Paint Protection"},{"tag":"Mobile Service"},{"tag":"Vinyl Wrap"}],"address":"2514 Widgeon Drive","country":"USA","state":"TN","city":"Clarksville","postal":"37042","priority":1,"apply_to_type":1},{"lat":"38.3059807","lng":"-76.6624848","id":7894317,"name":"SOMD Sun Control","phone":"+1 888-404-8468","email":"somdtint@gmail.com","web":"http:\/\/www.somdtint.com","webdisplay":"www.somdtint.com","tagsvalue":"Automotive,Architectural,Mobile Service","tags":[{"tag":"Automotive"},{"tag":"Architectural"},{"tag":"Mobile Service"}],"address":"Mobile Shop Unit","country":"USA","state":"MD","city":"Leonardtown","postal":"20650","priority":1,"apply_to_type":1},{"lat":"30.44149629999999","lng":"-97.742519","id":8040977,"name":"All American Tinting","phone":"+1 512-566-9647","email":"Kyleperez12@gmail.com","web":"http:\/\/www.allamericantinting.com","webdisplay":"www.allamericantinting.com","tagsvalue":"Automotive,Architectural,Mobile Service","tags":[{"tag":"Automotive"},{"tag":"Architectural"},{"tag":"Mobile Service"}],"address":"6001 W Parmer Lane","address2":"Suite 370 #589","country":"USA","state":"TX","city":"austin","postal":"78727","priority":1,"apply_to_type":1},{"lat":"42.51981199999999","lng":"-89.0266142","id":8082623,"name":"Traxx Auto Sales LLC","phone":"+1 608-368-3018","email":"freddy.traxxauto@gmail.com","tagsvalue":"Automotive","tags":[{"tag":"Automotive"}],"address":"1665 Park Ave","country":"USA","state":"WI","city":"Beloit","postal":"53511","priority":1,"apply_to_type":1},{"lat":"32.9024447","lng":"-97.4020123","id":8125175,"name":"All American Window Tinting","phone":"+1 682-241-9882","email":"allamericantinttx@gmail.com","web":"http:\/\/www.allamericantinttx.com","webdisplay":"www.allamericantinttx.com","tagsvalue":"Automotive,Paint Protection,Detailing","tags":[{"tag":"Automotive"},{"tag":"Paint Protection"},{"tag":"Detailing"}],"address":"9881 North Saginaw Blvd","country":"USA","state":"TX","city":"Fort Worth","postal":"76020","priority":1,"apply_to_type":1},{"lat":"41.1118026","lng":"-80.6900349","id":8134165,"name":"Automotive Restyle","phone":"+1 330-899-8846","email":"service@auto-restyle.com","web":"http:\/\/www.auto-restyle.com","webdisplay":"www.auto-restyle.com","tagsvalue":"Automotive,Vinyl Wrap,Detailing","tags":[{"tag":"Automotive"},{"tag":"Vinyl Wrap"},{"tag":"Detailing"}],"address":"826 N Belle Vista Ave","country":"USA","state":"OH","city":"Youngstown","postal":"44509","priority":1,"apply_to_type":1},{"lat":"31.993283","lng":"-102.1506313","id":8134166,"name":"Aries Tint ","phone":"+1 432-215-7339","email":"Ariestint13@gmail.com","tagsvalue":"Automotive,Architectural,Paint Protection,Mobile Service","tags":[{"tag":"Automotive"},{"tag":"Architectural"},{"tag":"Paint Protection"},{"tag":"Mobile Service"}],"address":"5023 Princeton Ave","address2":"Suite 21","country":"USA","state":"TX","city":"Midland","postal":"79703","priority":1,"apply_to_type":1},{"lat":"35.3561902","lng":"-80.61970459999999","id":8207757,"name":"Premier Auto Sounds","phone":"+1 704-808-1214","email":"premierautosounds@gmail.com","web":"http:\/\/premierautosounds.com","webdisplay":"premierautosounds.com","tagsvalue":"Automotive,Architectural,Paint Protection,Vinyl Wrap,Detailing,Mobile Service","tags":[{"tag":"Automotive"},{"tag":"Architectural"},{"tag":"Paint Protection"},{"tag":"Vinyl Wrap"},{"tag":"Detailing"},{"tag":"Mobile Service"}],"address":"4325 Triple Crown Drive SW","country":"USA","state":"NC","city":"Concord","postal":"28027","priority":1,"apply_to_type":1},{"lat":"35.2084565","lng":"-89.79952600000001","id":8225502,"name":"Game Over Car Care","phone":"+1 901-647-6596","email":"mattcoving@yahoo.com","web":"https:\/\/gameovercarcare.com","webdisplay":"gameovercarcare.com","tagsvalue":"Automotive,Architectural,Paint Protection,Detailing","tags":[{"tag":"Automotive"},{"tag":"Architectural"},{"tag":"Paint Protection"},{"tag":"Detailing"}],"address":"7895 Stage Hills Boulevard","address2":"Suite 112","country":"USA","state":"TN","city":"Bartlett","postal":"38133","priority":1,"apply_to_type":1},{"lat":"33.7737999","lng":"-89.7428491","id":8266306,"name":"Makin' Shade","phone":"+1 662-417-1718","email":"makinyoushade@gmail.com","tagsvalue":"Automotive,Architectural,Mobile Service","tags":[{"tag":"Automotive"},{"tag":"Architectural"},{"tag":"Mobile Service"}],"address":"214 Lambs Road B","country":"USA","state":"MS","city":"Grenada","postal":"38901","priority":1,"apply_to_type":1},{"lat":"39.8384625","lng":"-75.791674","id":8266309,"name":"Lethal Venom Inc","phone":"+1 484-502-7502","email":"jvazquez@lethalvenominc.com","tagsvalue":"Automotive","tags":[{"tag":"Automotive"}],"address":"1318 Glen Willow Road","country":"USA","state":"PA","city":"Avondale","postal":"19311","priority":1,"apply_to_type":1},{"lat":"33.2327055","lng":"-95.5162787","id":8298702,"name":"Dark Horse Window Tinting","phone":"+1 903-480-1542","email":"josh.darkhorsewindowtinting@gmail.com","tagsvalue":"Automotive,Mobile Service","tags":[{"tag":"Automotive"},{"tag":"Mobile Service"}],"address":"2201 County Road 3512","country":"USA","state":"TX","city":"Dike","postal":"75437","priority":1,"apply_to_type":1},{"lat":"42.1070931","lng":"-102.8808425","id":8392585,"name":"Z3Auto Tint","phone":"+1 308-760-4894","email":"zuniga_ziggie@yahoo.com","tagsvalue":"Automotive,Architectural","tags":[{"tag":"Automotive"},{"tag":"Architectural"}],"address":"723 West 13th","country":"USA","state":"NE","city":"Alliance","postal":"69301","priority":1,"apply_to_type":1},{"lat":"40.7279843","lng":"-111.9164546","id":8409874,"name":"Window Coverings Utah","phone":"+1 801-859-1976","email":"windowcoveringsutah@gmail.com","tagsvalue":"Automotive,Architectural,Paint Protection,Vinyl Wrap","tags":[{"tag":"Automotive"},{"tag":"Architectural"},{"tag":"Paint Protection"},{"tag":"Vinyl Wrap"}],"address":"1939 S 900 W","country":"USA","state":"UT","city":"Salt Lake City","postal":"84104","priority":1,"apply_to_type":1},{"lat":"39.735872","lng":"-104.978723","id":8409876,"name":"MD CustomZ","phone":"+1 720-683-0049","email":"mdcustomz5280@gmail.com","web":"https:\/\/mdcustomz.com\/window-tinting-denver","webdisplay":"mdcustomz.com\/window-tinting-denver","tagsvalue":"Automotive,Architectural,Paint Protection,Vinyl Wrap","tags":[{"tag":"Automotive"},{"tag":"Architectural"},{"tag":"Paint Protection"},{"tag":"Vinyl Wrap"}],"address":"5890 N Washington Street","address2":"Unit #6","country":"USA","state":"CO","city":"Denver","postal":"80216","priority":1,"apply_to_type":1},{"lat":"36.6096801","lng":"-82.1747836","id":8415275,"name":"Mobster Auto Detail","phone":"+1 855-623-6622","email":"info@mobsterautodetail.com","web":"http:\/\/MobsterAutoDetail.com","webdisplay":"MobsterAutoDetail.com","tagsvalue":"Automotive,Architectural,Paint Protection,Vinyl Wrap,Detailing,Mobile Service","tags":[{"tag":"Automotive"},{"tag":"Architectural"},{"tag":"Paint Protection"},{"tag":"Vinyl Wrap"},{"tag":"Detailing"},{"tag":"Mobile Service"}],"address":"1316 Lee Highway","country":"USA","state":"VA","city":"Bristol","postal":"24201","priority":1,"apply_to_type":1},{"lat":"46.4399042","lng":"-97.6715706","id":8452533,"name":"Tint Conditions Window Tinting LLC","phone":"+1 701-308-0920","email":"muraltzach@gmail.com","tagsvalue":"Automotive,Architectural","tags":[{"tag":"Automotive"},{"tag":"Architectural"}],"address":"609 Wulff Street","country":"USA","state":"ND","city":"Lisbon","postal":"58054","priority":1,"apply_to_type":1},{"lat":"40.5566421","lng":"-111.9437256","id":8452683,"name":"Izzy & Sons Window Tinting ","phone":"+1 801-232-2095","email":"izzyandsonswindowtinting@gmail.com","web":"https:\/\/izzy-sons-window-tinting.business.site\/","webdisplay":"izzy-sons-window-tinting.business.site\/","tagsvalue":"Architectural","tags":[{"tag":"Architectural"}],"address":"1967 W 10740 S","country":"USA","state":"UT","city":"South Jordan","postal":"84095","priority":1,"apply_to_type":1},{"lat":"33.8653596","lng":"-117.8067571","id":8533490,"name":"Precision Cuts Tinting","phone":"+1 949-329-4218","email":"precisoncutstinting@gmail.com","web":"https:\/\/www.precisioncuts-tinting.com\/","webdisplay":"www.precisioncuts-tinting.com\/","tagsvalue":"Automotive","tags":[{"tag":"Automotive"}],"address":"6482 Cymbal Street","country":"USA","state":"CA","city":"Anaheim","postal":"92807","priority":1,"apply_to_type":1},{"lat":"37.3867958","lng":"-120.6267086","id":8533491,"name":"Aliados Tint","phone":"+1 209-683-9595","email":"raiderss209@gmail.com","tagsvalue":"Automotive","tags":[{"tag":"Automotive"}],"address":"7716 Zora Court","country":"USA","state":"CA","city":"Winton","postal":"95388","priority":1,"apply_to_type":1},{"lat":"36.0540385","lng":"-88.11312439999999","id":8555063,"name":"Mike’s Tint Shop","phone":"+1 731-441-9196","email":"scroncemike@aol.com","tagsvalue":"Automotive,Architectural,Paint Protection,Mobile Service","tags":[{"tag":"Automotive"},{"tag":"Architectural"},{"tag":"Paint Protection"},{"tag":"Mobile Service"}],"address":"396 Hospital Drive","country":"USA","state":"TN","city":"Camden","postal":"38320","priority":1,"apply_to_type":1},{"lat":"33.5747341","lng":"-117.1857994","id":8556451,"name":"Fully Tinted","phone":"+1 951-417-7615","email":"jt@fullytinted.com","web":"http:\/\/fullytinted.com","webdisplay":"fullytinted.com","tagsvalue":"Automotive,Architectural,Paint Protection,Vinyl Wrap,Mobile Service","tags":[{"tag":"Automotive"},{"tag":"Architectural"},{"tag":"Paint Protection"},{"tag":"Vinyl Wrap"},{"tag":"Mobile Service"}],"address":"39872 Snow Gum Lane","country":"USA","state":"CA","city":"Murrieta","postal":"92562","priority":1,"apply_to_type":1},{"lat":"31.3501142","lng":"-89.35033469999999","id":8596592,"name":"Pro1 Window Tinting LLC","phone":"+1 601-658-2250","email":"noahpatton84@gmail.com","tagsvalue":"Automotive,Architectural","tags":[{"tag":"Automotive"},{"tag":"Architectural"}],"address":"500 Campbell Loop","address2":"Suite 40","country":"USA","state":"MS","city":"Hattiesburg","postal":"39401","priority":1,"apply_to_type":1},{"lat":"38.2173058","lng":"-85.80525879999999","id":8665618,"name":"C.R Custom Tint & Detail ","phone":"+1 502-410-9953","email":"chasered123456789@gmail.com","tagsvalue":"Automotive,Architectural,Paint Protection,Vinyl Wrap,Detailing","tags":[{"tag":"Automotive"},{"tag":"Architectural"},{"tag":"Paint Protection"},{"tag":"Vinyl Wrap"},{"tag":"Detailing"}],"address":"2501 Millers Lane","country":"USA","state":"KY","city":"Louisville","postal":"40216","priority":1,"apply_to_type":1},{"lat":"39.8837812","lng":"-86.2448448","id":8744618,"name":"Unique Auto Styling ","phone":"+1 317-670-5744","email":"uniqueautostylingllc@gmail.com","tagsvalue":"Automotive,Vinyl Wrap,Detailing","tags":[{"tag":"Automotive"},{"tag":"Vinyl Wrap"},{"tag":"Detailing"}],"address":"7210 Georgetown Road","address2":"Suite 400","country":"USA","state":"IN","city":"Indianapolis","postal":"46268","priority":1,"apply_to_type":1},{"lat":"32.8753119","lng":"-81.11854509999999","id":8791151,"name":"Top Notch Tinting","phone":"+1 803-842-0413","tagsvalue":"Automotive,Architectural,Paint Protection,Vinyl Wrap,Mobile Service","tags":[{"tag":"Automotive"},{"tag":"Architectural"},{"tag":"Paint Protection"},{"tag":"Vinyl Wrap"},{"tag":"Mobile Service"}],"address":"1125 Elm Street West","country":"USA","state":"SC","city":"Hampton","postal":"29924","priority":1,"apply_to_type":1},{"lat":"30.5243851","lng":"-97.54357429999999","id":8797251,"name":"Reflections Mobile Auto Detailing","phone":"+1 512-713-4945","email":"reflectionsmad@gmail.com","tagsvalue":"Automotive,Architectural,Detailing,Mobile Service","tags":[{"tag":"Automotive"},{"tag":"Architectural"},{"tag":"Detailing"},{"tag":"Mobile Service"}],"address":"111 Hawkins Court","country":"USA","state":"TX","city":"Hutto","postal":"78634","priority":1,"apply_to_type":1},{"lat":"44.9861087","lng":"-84.4944597","id":8797252,"name":"High Grade Shade, LLC","phone":"+1 248-660-5472","email":"nate.hickey69@gmail.com","tagsvalue":"Automotive","tags":[{"tag":"Automotive"}],"address":"8598 Michigan M-32 East","country":"USA","state":"MI","city":"Johannesburg","postal":"49751","priority":1,"apply_to_type":1},{"lat":"34.6967163","lng":"-82.3197359","id":8799762,"name":"Perfect Darkness Tint","phone":"+1 864-778-8468","email":"perfectdarknesstint@gmail.com","web":"https:\/\/perfectdarknesstint.com","webdisplay":"perfectdarknesstint.com","tagsvalue":"Automotive,Architectural,Mobile Service","tags":[{"tag":"Automotive"},{"tag":"Architectural"},{"tag":"Mobile Service"}],"address":"340 Arnold Mill Road","country":"USA","state":"SC","city":"Simpsonville","postal":"29680","priority":1,"apply_to_type":1},{"lat":"29.9979304","lng":"-97.814627","id":8818142,"name":"5G Auto Tint ","phone":"+1 512-803-3034","email":"FiveGAutoTint@yahoo.com","tagsvalue":"Automotive,Architectural","tags":[{"tag":"Automotive"},{"tag":"Architectural"}],"address":"201 Dogwood Trail","country":"USA","state":"TX","city":"Kyle","postal":"78640","priority":1,"apply_to_type":1},{"lat":"40.8255489","lng":"-75.1553133","id":8949306,"name":"Tint Wurx LLC","phone":"+1 570-460-9257","email":"tintwurxllc@gmail.com","tagsvalue":"Automotive,Architectural,Paint Protection,Vinyl Wrap,Mobile Service","tags":[{"tag":"Automotive"},{"tag":"Architectural"},{"tag":"Paint Protection"},{"tag":"Vinyl Wrap"},{"tag":"Mobile Service"}],"address":"9587 Jacktown Road","country":"USA","state":"PA","city":"Bangor","postal":"18013","priority":1,"apply_to_type":1},{"lat":"36.4351111","lng":"-82.3054504","id":8949308,"name":"Direct Auto Reconditioning","phone":"+1 423-967-0383","email":"directpdrtn@gmail.com","web":"http:\/\/www.directautorecon.com","webdisplay":"www.directautorecon.com","tagsvalue":"Automotive,Detailing","tags":[{"tag":"Automotive"},{"tag":"Detailing"}],"address":"5585 Highway 11E","country":"USA","state":"TN","city":"Piney Flats","postal":"37686","priority":1,"apply_to_type":1},{"lat":"34.2063122","lng":"-83.4516209","id":8987048,"name":"Southeast Tint","phone":"+1 470-892-4120","email":"southeasttintanddesign@gmail.com","tagsvalue":"Automotive,Architectural,Paint Protection,Vinyl Wrap","tags":[{"tag":"Automotive"},{"tag":"Architectural"},{"tag":"Paint Protection"},{"tag":"Vinyl Wrap"}],"address":"429 State Street","country":"USA","state":"GA","city":"Commerce","postal":"30529","priority":1,"apply_to_type":1},{"lat":"35.6800995","lng":"-80.8553225","id":8990418,"name":"Diamond Detailing","phone":"+1 704-995-0673","email":"adam@diamonddetailingnc.com","web":"http:\/\/www.DiamondDetailingNC.com","webdisplay":"www.DiamondDetailingNC.com","tagsvalue":"Automotive,Architectural,Paint Protection,Detailing","tags":[{"tag":"Automotive"},{"tag":"Architectural"},{"tag":"Paint Protection"},{"tag":"Detailing"}],"address":"156 Houston Road","address2":"Suite 104","country":"USA","state":"NC","city":"Troutman","postal":"28166","priority":1,"apply_to_type":1},{"lat":"46.3254724","lng":"-119.2867792","id":9018766,"name":"Villamar Window Tinting","phone":"+1 509-571-7622","email":"villamar.abraham@outlook.com","tagsvalue":"Automotive","tags":[{"tag":"Automotive"}],"address":"2579 Stevens Drive","country":"USA","state":"WA","city":"Richland","postal":"99354","priority":1,"apply_to_type":1},{"lat":"30.001285","lng":"-92.2965835","id":9043870,"name":"Pro-Ink Customs","phone":"+1 337-654-9489","email":"jhardy@proinkcustoms.com","web":"http:\/\/www.proinkcustoms.com","webdisplay":"www.proinkcustoms.com","tagsvalue":"Automotive,Architectural,Paint Protection,Vinyl Wrap","tags":[{"tag":"Automotive"},{"tag":"Architectural"},{"tag":"Paint Protection"},{"tag":"Vinyl Wrap"}],"address":"1112 W. Veterans Memorial Drive","country":"USA","state":"LA","city":"Kaplan","postal":"70548","priority":1,"apply_to_type":1},{"lat":"36.1528677","lng":"-115.2090631","id":9072383,"name":"Diamond Tint Las Vegas","phone":"+1 702-780-7399","email":"diamondlvtint@gmail.com","web":"https:\/\/www.diamondtintlv.com\/","webdisplay":"www.diamondtintlv.com\/","tagsvalue":"Automotive,Architectural,Paint Protection,Vinyl Wrap,Detailing","tags":[{"tag":"Automotive"},{"tag":"Architectural"},{"tag":"Paint Protection"},{"tag":"Vinyl Wrap"},{"tag":"Detailing"}],"address":"5000 West Oakey Boulevard","address2":"Unit C7","country":"USA","state":"NV","city":"Las Vegas","postal":"89146","priority":1,"apply_to_type":1},{"lat":"48.6168856","lng":"-93.41936349999999","id":9084387,"name":"Custom Auto & Accessories","phone":"+1 807-276-1430","email":"custom_auto2@outlook.com","web":"http:\/\/www.customauto1.com","webdisplay":"www.customauto1.com","tagsvalue":"Automotive,Paint Protection,Detailing","tags":[{"tag":"Automotive"},{"tag":"Paint Protection"},{"tag":"Detailing"}],"address":"720 Sixth Street West","country":"Canada","state":"ON","city":"Fort Frances","postal":"P9A 3E9","priority":1,"apply_to_type":1},{"lat":"28.6159783","lng":"-81.4188844","id":9164453,"name":"Tailored Auto Salon LLC","phone":"+1 407-930-3720","email":"info@tailoredautosalon.com","tagsvalue":"Automotive,Paint Protection,Vinyl Wrap,Detailing","tags":[{"tag":"Automotive"},{"tag":"Paint Protection"},{"tag":"Vinyl Wrap"},{"tag":"Detailing"}],"address":"6325 All American Boulevard","country":"USA","state":"FL","city":"Lockhart","postal":"32810","priority":1,"apply_to_type":1},{"lat":"38.8138874","lng":"-79.8753419","id":9183680,"name":"Executive Auto Spa, LLC","phone":"+1 304-642-0212","email":"cormierc.231@gmail.com","web":"https:\/\/www.facebook.com\/ExecutiveAutoSpaLLC","webdisplay":"www.facebook.com\/ExecutiveAutoSpaLLC","tagsvalue":"Automotive,Detailing","tags":[{"tag":"Automotive"},{"tag":"Detailing"}],"address":"1235 Scotts Lake Road","country":"USA","state":"WV","city":"Beverly","postal":"26253","priority":1,"apply_to_type":1},{"lat":"36.2631622","lng":"-76.21959860000001","id":9192763,"name":"ARS","phone":"+1 757-353-8532","email":"k_dholleyjr@live.com","tagsvalue":"Automotive,Architectural","tags":[{"tag":"Automotive"},{"tag":"Architectural"}],"address":"807 Kylers Way","country":"USA","state":"NC","city":"Elizabeth City","postal":"27909","priority":1,"apply_to_type":1},{"lat":"38.3995095","lng":"-75.57865799999999","id":9198351,"name":"DMV Tint","phone":"+1 443-358-6183","email":"dmvtintmd@gmail.com","web":"https:\/\/facebook.com\/dmvtintmd","webdisplay":"facebook.com\/dmvtintmd","tagsvalue":"Automotive,Architectural,Mobile Service","tags":[{"tag":"Automotive"},{"tag":"Architectural"},{"tag":"Mobile Service"}],"address":"2205 Northwood Drive","country":"USA","state":"MD","city":"Salisbury","postal":"21853","priority":1,"apply_to_type":1},{"lat":"38.187739","lng":"-85.70176339999999","id":9409625,"name":"Sun Tint","phone":"+1 502-254-0001","email":"info@sun-tint.com","web":"http:\/\/www.sun-tint.com","webdisplay":"www.sun-tint.com","tagsvalue":"Automotive,Architectural,Paint Protection,Vinyl Wrap,Detailing,Mobile Service","tags":[{"tag":"Automotive"},{"tag":"Architectural"},{"tag":"Paint Protection"},{"tag":"Vinyl Wrap"},{"tag":"Detailing"},{"tag":"Mobile Service"}],"address":"4511 Poplar Level Road,","country":"USA","state":"KY","city":"Louisville","postal":"40213-2123","priority":1,"apply_to_type":1},{"lat":"30.4019893","lng":"-86.9877133","id":9450242,"name":"Kustom Touch and Wheels","phone":"+1 850-227-6274","email":"kustomtouchandwheels@gmail.com","tagsvalue":"Automotive,Architectural","tags":[{"tag":"Automotive"},{"tag":"Architectural"}],"address":"1823 Cowen Road","country":"USA","state":"FL","city":"Gulf Breeze","postal":"32563","priority":1,"apply_to_type":1},{"lat":"40.3272089","lng":"-78.9509649","id":9601708,"name":"MDX Detailing","phone":"+1 814-254-4256","email":"mdxdetailingquotes@gmail.com","web":"http:\/\/www.mdxdetailing.com","webdisplay":"www.mdxdetailing.com","tagsvalue":"Automotive,Paint Protection,Detailing","tags":[{"tag":"Automotive"},{"tag":"Paint Protection"},{"tag":"Detailing"}],"address":"1805 Goucher Street","country":"USA","state":"PA","city":"Johnstown","postal":"15905","priority":1,"apply_to_type":1},{"lat":"48.4708002","lng":"-122.330162","id":9601709,"name":"Clear View Tint and Auto Accessories LLC","phone":"+1 360-755-3837","email":"clearviewtint4u@gmail.com","web":"http:\/\/clearviewautotint.com","webdisplay":"clearviewautotint.com","tagsvalue":"Automotive","tags":[{"tag":"Automotive"}],"address":"710 S Spruce Street","country":"USA","city":"Burlington","postal":"98233","priority":1,"apply_to_type":1},{"lat":"38.2379384","lng":"-85.8218649","id":9637673,"name":"The Spott","phone":"+1 502-533-7764","email":"thespott1321@gmail.com","tagsvalue":"Automotive,Vinyl Wrap","tags":[{"tag":"Automotive"},{"tag":"Vinyl Wrap"}],"address":"1321 Cecil Avenue","country":"USA","state":"KY","city":"Louisville","postal":"40211","priority":1,"apply_to_type":1},{"lat":"39.9271418","lng":"-74.96679189999999","id":9657403,"name":"Premier Tinting","phone":"+1 609-214-8008","email":"njpremiertinting@gmail.com","tagsvalue":"Automotive","tags":[{"tag":"Automotive"}],"address":"3836 Church Road","country":"USA","state":"NJ","city":"Mount Laurel","postal":"08054","priority":1,"apply_to_type":1},{"lat":"33.518953","lng":"-85.4214139","id":9702599,"name":"Kelly’s Performance Window tinting","phone":"+1 706-585-1892","email":"kellysperformancetint@gmail.com","tagsvalue":"Automotive,Architectural","tags":[{"tag":"Automotive"},{"tag":"Architectural"}],"address":"1930 Mall Boulevard","country":"USA","state":"AL","city":"Auburn","postal":"36830","priority":1,"apply_to_type":1},{"lat":"33.518953","lng":"-85.4214139","id":9702600,"name":"Sundown Customs Window Tinting","phone":"+1 864-760-5775","email":"jacobtylergrant@gmail.com","tagsvalue":"Automotive,Architectural,Mobile Service","tags":[{"tag":"Automotive"},{"tag":"Architectural"},{"tag":"Mobile Service"}],"address":"7005A Calhoun Memorial Highway","country":"USA","city":"Easley","postal":"29640","priority":1,"apply_to_type":1},{"lat":"43.4176383","lng":"-71.0005445","id":9721721,"name":"Brooks Window Tint","phone":"+1 207-337-4510","email":"brooksmechanicalcf1@gmail.com","tagsvalue":"Automotive,Architectural,Mobile Service","tags":[{"tag":"Automotive"},{"tag":"Architectural"},{"tag":"Mobile Service"}],"address":"54 Grandview Road","country":"USA","state":"NH","city":"Milton","postal":"03851","priority":1,"apply_to_type":1},{"lat":"35.4822369","lng":"-86.0866066","id":9763973,"name":"Razor's Edge Window Tint","phone":"+1 931-247-7972","tagsvalue":"Automotive,Architectural,Mobile Service","tags":[{"tag":"Automotive"},{"tag":"Architectural"},{"tag":"Mobile Service"}],"address":"103 South Woodland Street","country":"USA","state":"TN","city":"Manchester","postal":"37355","priority":1,"apply_to_type":1},{"lat":"41.6959725","lng":"-88.24102219999999","id":9963681,"name":"Elegant Aurmor","phone":"+1 331-222-7947","email":"elegantaurmornaperville@gmail.com","tagsvalue":"Automotive,Paint Protection,Vinyl Wrap,Detailing,Mobile Service","tags":[{"tag":"Automotive"},{"tag":"Paint Protection"},{"tag":"Vinyl Wrap"},{"tag":"Detailing"},{"tag":"Mobile Service"}],"address":"10212 S Mandel Street","address2":"Suite A","country":"USA","state":"IL","city":"Plainfield","postal":"60585","priority":1,"apply_to_type":1},{"lat":"34.4079329","lng":"-117.3764973","id":10002772,"name":"TVR Window Tint","phone":"+1 760-809-5464","email":"tvrwindowtint@live.com","web":"http:\/\/tvrwindowtint.com","webdisplay":"tvrwindowtint.com","tagsvalue":"Automotive","tags":[{"tag":"Automotive"}],"address":"13125 Sunnyvale Court","country":"USA","state":"CA","city":"Hesperia","postal":"92344","priority":1,"apply_to_type":1},{"lat":"39.5701772","lng":"-104.6692814","id":10036184,"name":"Modern Rides ","phone":"+1 720-688-5471 ","email":"modernrideswrap@gmail.com","tagsvalue":"Automotive,Paint Protection,Vinyl Wrap,Detailing","tags":[{"tag":"Automotive"},{"tag":"Paint Protection"},{"tag":"Vinyl Wrap"},{"tag":"Detailing"}],"address":"8040 S Blackstone Parkway","country":"USA","state":"CO","city":"Aurora","postal":"80016","priority":1,"apply_to_type":1},{"lat":"35.0022305","lng":"-85.1274148","id":10062758,"name":"Deep South Tinting","phone":"+1 423-704-0505","email":"deepsouthtint@gmail.com","web":"http:\/\/deepsouthtinting.com","webdisplay":"deepsouthtinting.com","tagsvalue":"Automotive,Mobile Service","tags":[{"tag":"Automotive"},{"tag":"Mobile Service"}],"address":"E Brainard Area","country":"USA","state":"TN","city":"Chattanooga","postal":"37421","priority":1,"apply_to_type":1},{"lat":"39.8783467","lng":"-104.7976996","id":10455658,"name":"Supa Mario Ent.","phone":"+1 720-768-2611","email":"supamariodj@gmail.com","tagsvalue":"Automotive,Paint Protection,Detailing","tags":[{"tag":"Automotive"},{"tag":"Paint Protection"},{"tag":"Detailing"}],"address":"16410 E 100th Avenue","country":"USA","state":"CO","city":"Commerce City","postal":"80022","priority":1,"apply_to_type":1},{"lat":"33.518953","lng":"-85.4214139","id":10563470,"name":"Vinyl Daves","phone":"+1 502-883-8070","email":"dkinnison18@gmail.com","tagsvalue":"Automotive,Architectural,Vinyl Wrap,Detailing","tags":[{"tag":"Automotive"},{"tag":"Architectural"},{"tag":"Vinyl Wrap"},{"tag":"Detailing"}],"address":"7307 St. Andrews Church Road","country":"USA","state":"KY","city":"Louisville","postal":"40214","priority":1,"apply_to_type":1},{"lat":"30.5060819","lng":"-92.4092349","id":10657185,"name":"TJs Tint Worx","phone":"+1 337-305-9689","email":"tyjohnson49@icloud.com","tagsvalue":"Automotive,Architectural","tags":[{"tag":"Automotive"},{"tag":"Architectural"}],"address":"333 Bradley street","country":"USA","state":"LA","city":"Eunice","postal":"70535","priority":1,"apply_to_type":1},{"lat":"37.8258544","lng":"-85.4402287","id":10739413,"name":"Elegant Customs LLC","phone":"+1 502-827-7066","email":"denny_w_7@hotmail.com","tagsvalue":"Automotive,Architectural","tags":[{"tag":"Automotive"},{"tag":"Architectural"}],"address":"802 Pennebaker Avenue","country":"USA","state":"KY","city":"Bardstown","postal":"40004","priority":1,"apply_to_type":1},{"lat":"30.3959488","lng":"-97.9160191","id":10753183,"name":"Dixie Tint Pros","phone":"+1 512-574-1350","email":"paul@dixietintpros.com","web":"http:\/\/www.dixietintpros.com","tagsvalue":"Automotive","tags":[{"tag":"Automotive"}],"address":"4229 N FM 620","country":"USA","state":"TX","city":"Austin","postal":"78734","priority":1,"apply_to_type":1},{"lat":"40.6762634","lng":"-95.8494994","id":10753221,"name":"Prestige Window Tinting","phone":"+1 402-874-0202","email":"haney1989@gmail.com","tagsvalue":"Automotive,Architectural,Mobile Service","tags":[{"tag":"Automotive"},{"tag":"Architectural"},{"tag":"Mobile Service"}],"address":"311 E Central","country":"USA","state":"NE","city":"Nebraska City","postal":"68410","priority":1,"apply_to_type":1},{"lat":"30.1631527","lng":"-81.58832389999999","id":10778584,"name":"Eclipse Window Tinting Inc.","phone":"+1 904-880-4442","email":"eclipsetinting@gmail.com","web":"http:\/\/eclipse-window-tinting-inc.com","tagsvalue":"Automotive,Architectural,Paint Protection","tags":[{"tag":"Automotive"},{"tag":"Architectural"},{"tag":"Paint Protection"}],"address":"11575 Wandering Pines Trail West","country":"USA","state":"FL","city":"Jacksonville","postal":"32258","priority":1,"apply_to_type":1},{"lat":"33.6253181","lng":"-97.1492","id":10819557,"name":"Abel's Touch","phone":"+1 940-668-0901","email":"abel.almaraz@yahoo.com","web":"http:\/\/www.abelstouch.biz","tagsvalue":"Automotive","tags":[{"tag":"Automotive"}],"address":"127 Throckmorton Street","country":"USA","state":"TX","city":"Gainesville","postal":"76240","priority":1,"apply_to_type":1},{"lat":"37.70146810000001","lng":"-121.9278087","id":10922245,"name":"Dublin Window Tint","phone":"+1 925-695-7082","email":"dublinwindowtint@gmail.com","web":"http:\/\/dublinwindowtint.com","tagsvalue":"Automotive,Paint Protection,Vinyl Wrap","tags":[{"tag":"Automotive"},{"tag":"Paint Protection"},{"tag":"Vinyl Wrap"}],"address":"6449 Golden Gate Drive","country":"USA","state":"CA","city":"Dublin","postal":"94568","priority":1,"apply_to_type":1},{"lat":"30.3041638","lng":"-81.7172212","id":11015511,"name":"Fast Freddie’s Installations","phone":"+1 904-750-1234","email":"ffillc813@gmail.com","tagsvalue":"Automotive,Architectural,Vinyl Wrap,Mobile Service","tags":[{"tag":"Automotive"},{"tag":"Architectural"},{"tag":"Vinyl Wrap"},{"tag":"Mobile Service"}],"address":"1218 Rensselaer Avenue","country":"USA","state":"FL","city":"Jacksonville","postal":"32205","priority":1,"apply_to_type":1},{"lat":"40.5393647","lng":"-78.3559005","id":11018497,"name":"AutoDV8ions Sound Security & Tint","phone":"+1 814-201-2456","email":"sales@autodv8ions.com","web":"http:\/\/autodv8ions.com","tagsvalue":"Automotive","tags":[{"tag":"Automotive"}],"address":"1648 East Pleasant Valley Blvd","country":"USA","state":"PA","city":"Altoona","postal":"16602","priority":1,"apply_to_type":1},{"lat":"36.8856206","lng":"-86.8486794","id":11021908,"name":"Moore’s Sunlight Solutions","phone":"+1 270-221-0921","email":"dmoore1999@hotmail.com","tagsvalue":"Automotive,Architectural","tags":[{"tag":"Automotive"},{"tag":"Architectural"}],"address":"181 Old 79 Loop Road","country":"USA","state":"KY","city":"Russellville","postal":"42276","priority":1,"apply_to_type":1},{"lat":"38.040462","lng":"-84.88497699999999","id":11028895,"name":"The Tint Factory","phone":"+1 502-353-4135","email":"parkersonzack@gmail.com","tagsvalue":"Automotive,Architectural,Paint Protection,Vinyl Wrap,Detailing","tags":[{"tag":"Automotive"},{"tag":"Architectural"},{"tag":"Paint Protection"},{"tag":"Vinyl Wrap"},{"tag":"Detailing"}],"address":"105 Hilltop Drive","country":"USA","state":"KY","city":"Lawrenceburg","postal":"40342","priority":1,"apply_to_type":1},{"lat":"33.518953","lng":"-85.4214139","id":11028897,"name":"Supa Mario Ent.","phone":"+1 720-768-2611","email":"supamariodj@gmail.com","tagsvalue":"Automotive,Paint Protection,Vinyl Wrap,Detailing","tags":[{"tag":"Automotive"},{"tag":"Paint Protection"},{"tag":"Vinyl Wrap"},{"tag":"Detailing"}],"address":"16410 E 100th Ave","country":"USA","state":"CO","city":"Commerce City","postal":"80022","priority":1,"apply_to_type":1},{"lat":"30.6651557","lng":"-88.5053983","id":11028912,"name":"K&N Detail","phone":"+1 228-217-2197","email":"gbrown2005@bellsouth.net","tagsvalue":"Automotive,Architectural,Detailing,Mobile Service","tags":[{"tag":"Automotive"},{"tag":"Architectural"},{"tag":"Detailing"},{"tag":"Mobile Service"}],"address":"6205 McCormack Road","country":"USA","state":"MS","city":"Moss Point","postal":"39562","priority":1,"apply_to_type":1},{"lat":"29.6553016","lng":"-95.56332809999999","id":11059085,"name":"X-pert Tint and Alarm","phone":"+1 281-575-0371","email":"xperttint@yahoo.com","web":"http:\/\/Houstontint.com","tagsvalue":"Automotive,Paint Protection,Detailing","tags":[{"tag":"Automotive"},{"tag":"Paint Protection"},{"tag":"Detailing"}],"address":"11231 Southwest Freeway","country":"USA","state":"TX","city":"Houston","postal":"77031","priority":1,"apply_to_type":1},{"lat":"39.4708025","lng":"-119.7752859","id":11101007,"name":"BLC Tints LLC","phone":"+1 775-440-3007","tagsvalue":"Automotive,Architectural,Paint Protection","tags":[{"tag":"Automotive"},{"tag":"Architectural"},{"tag":"Paint Protection"}],"address":"5655 Riggins Court","address2":"Suite 20","country":"USA","state":"NV","city":"Reno","postal":"88523","priority":1,"apply_to_type":1},{"lat":"35.6799345","lng":"-78.7803161","id":11191128,"name":"Dark Reflections Window Tinting LLC","phone":"+1 919-753-6495","email":"camlynn17@gmail.com","tagsvalue":"Automotive,Architectural,Mobile Service","tags":[{"tag":"Automotive"},{"tag":"Architectural"},{"tag":"Mobile Service"}],"address":"8701 Pierce Olive Road","country":"USA","state":"NC","city":"Apex","postal":"27539","priority":1,"apply_to_type":1},{"lat":"37.96444109999999","lng":"-100.8478586","id":11191130,"name":"Bros Kustom Auto LLC","phone":"+1 620-521-4464","email":"broskustomauto@gmail.com","tagsvalue":"Automotive,Paint Protection,Vinyl Wrap","tags":[{"tag":"Automotive"},{"tag":"Paint Protection"},{"tag":"Vinyl Wrap"}],"address":"203 North Campus","country":"USA","state":"KS","city":"Garden City","postal":"67846","priority":1,"apply_to_type":1},{"lat":"30.6651557","lng":"-88.5053983","id":11200439,"name":"K&N Detailing And Tinting LLC","phone":"+1 228-217-2197","email":"gbrown2005@bellsouth.net","tagsvalue":"Automotive,Architectural,Detailing,Mobile Service","tags":[{"tag":"Automotive"},{"tag":"Architectural"},{"tag":"Detailing"},{"tag":"Mobile Service"}],"address":"6205 McCormack Road","country":"USA","state":"MS","city":"Moss Point","postal":"39562","priority":1,"apply_to_type":1},{"lat":"36.0824292","lng":"-95.84140049999999","id":11200441,"name":"Ba Tint & Detail","phone":"+1 918-815-0889","email":"mshrier13@gmail.com","tagsvalue":"Automotive,Paint Protection,Detailing","tags":[{"tag":"Automotive"},{"tag":"Paint Protection"},{"tag":"Detailing"}],"address":"5616 S 122nd E Avenue","address2":"Suite K","country":"USA","state":"OK","city":"Tulsa","postal":"74146","priority":1,"apply_to_type":1},{"lat":"40.09002","lng":"-83.2818106","id":11236467,"name":"Resurrection AutoWorx","phone":"+1 614-800-0922","email":"resurrectionautoworx@gmail.com","web":"http:\/\/www.resurrectionautoworx.com","tagsvalue":"Automotive,Detailing,Mobile Service","tags":[{"tag":"Automotive"},{"tag":"Detailing"},{"tag":"Mobile Service"}],"address":"6750 Converse Huff Road","country":"USA","state":"OH","city":"Plain City","postal":"43064","priority":1,"apply_to_type":1},{"lat":"40.6472369","lng":"-112.0411863","id":11236468,"name":"Izzy & Sons Window Tinting","phone":"+1 801-232-2095","email":"sales@windowtint.llc","web":"https:\/\/izzy-sons-window-tinting.business.site","tagsvalue":"Architectural","tags":[{"tag":"Architectural"}],"address":"6288 Peten Way","country":"USA","state":"UT","city":"West Valley","postal":"84118","priority":1,"apply_to_type":1},{"lat":"29.98197","lng":"-90.2485507","id":11320773,"name":"Privacy Tint and Detail","phone":"+1 504-919-5582","email":"juliuspallagao@yahoo.com","web":"http:\/\/privacytintanddetail.com","tagsvalue":"Automotive,Paint Protection,Detailing","tags":[{"tag":"Automotive"},{"tag":"Paint Protection"},{"tag":"Detailing"}],"address":"924 Maria Street","country":"USA","state":"LA","city":"Kenner","postal":"70062","priority":1,"apply_to_type":1},{"lat":"33.2825718","lng":"-93.2458508","id":11320776,"name":"Link Auto Sales and Glass","phone":"+1 870-331-4160","email":"oplinkiii@gmail.com","tagsvalue":"Automotive,Architectural,Mobile Service","tags":[{"tag":"Automotive"},{"tag":"Architectural"},{"tag":"Mobile Service"}],"address":"1615 N Vine Magnolia","country":"USA","state":"AR","city":"Magnolia","postal":"71753","priority":1,"apply_to_type":1},{"lat":"33.518953","lng":"-85.4214139","id":11353351,"name":"Auto Tint and Detail","phone":"+1 304-539-7024","email":"auto.tint.detail@gmail.com","tagsvalue":"Automotive,Architectural,Detailing,Mobile Service","tags":[{"tag":"Automotive"},{"tag":"Architectural"},{"tag":"Detailing"},{"tag":"Mobile Service"}],"address":"9200 MacCorkle Avenue","country":"USA","state":"WV","city":"Marmet","postal":"25315","priority":1,"apply_to_type":1},{"lat":"33.518953","lng":"-85.4214139","id":11353352,"name":"NW Solar Protection LLC.","phone":"+1 509-210-2229","email":"scott@nwspspokane.com","tagsvalue":"Automotive,Architectural,Paint Protection,Vinyl Wrap","tags":[{"tag":"Automotive"},{"tag":"Architectural"},{"tag":"Paint Protection"},{"tag":"Vinyl Wrap"}],"address":"10125 N Division Street","country":"USA","state":"WA","city":"Spokane","postal":"99218","priority":1,"apply_to_type":1},{"lat":"40.0827792","lng":"-80.8908277","id":11353354,"name":"R&M Auto Glass & Tint Shop","phone":"+1 740-695-4786","email":"r.bumgardner@sbcglobal.net","tagsvalue":"Automotive,Architectural,Detailing","tags":[{"tag":"Automotive"},{"tag":"Architectural"},{"tag":"Detailing"}],"address":"252 E Main Street","country":"USA","city":"Saint Clairsville","postal":"43950-1552","priority":1,"apply_to_type":1},{"lat":"41.11958509999999","lng":"-85.1493443","id":11367626,"name":"Tint Masters","phone":"+1 260-248-0301","email":"tintmastersfw@gmail.com","web":"https:\/\/www.facebook.com\/TintMastersFt.Wayne","tagsvalue":"Automotive","tags":[{"tag":"Automotive"}],"address":"4525 North Wells Street Extended","country":"USA","state":"IN","city":"Fort Wayne","postal":"46825","priority":1,"apply_to_type":1},{"lat":"41.8209983","lng":"-70.8089901","id":11367637,"name":"Platinum Tint & Detail","phone":"+1 978-835-6893","email":"rm100motox@gmail.com","tagsvalue":"Automotive,Architectural,Paint Protection,Vinyl Wrap,Detailing,Mobile Service","tags":[{"tag":"Automotive"},{"tag":"Architectural"},{"tag":"Paint Protection"},{"tag":"Vinyl Wrap"},{"tag":"Detailing"},{"tag":"Mobile Service"}],"address":"607A Wareham Street","address2":"Building C","country":"USA","state":"MA","city":"Middleboro","postal":"02346","priority":1,"apply_to_type":1},{"lat":"43.2057869","lng":"-89.2059268","id":11407812,"name":"NightShade Window Film","phone":"+1 608-628-4178","email":"Nightshadewindowfilm@gmail.com","web":"http:\/\/nightshadewindowfilm.com","tagsvalue":"Automotive,Architectural,Paint Protection","tags":[{"tag":"Automotive"},{"tag":"Architectural"},{"tag":"Paint Protection"}],"address":"1731 Technology Drive","address2":"Suite 140","country":"USA","state":"WI","city":"Sun Praire","postal":"53590","priority":1,"apply_to_type":1},{"lat":"41.5442963","lng":"-90.6812057","id":11427570,"name":"Drells Tint Shop","phone":"+1 563-279-4750","email":"drelltintshop@gmail.com","tagsvalue":"Automotive","tags":[{"tag":"Automotive"}],"address":"7620 Louis Rich Court","country":"USA","city":"Davenport","postal":"52806","priority":1,"apply_to_type":1},{"lat":"30.5299787","lng":"-81.6468946","id":11427572,"name":"Supreme Window Tinting LLC","phone":"+1 904-323-1512","email":"info@supremewintinting.com","web":"http:\/\/www.supremewintinting.com","tagsvalue":"Automotive,Architectural","tags":[{"tag":"Automotive"},{"tag":"Architectural"}],"address":"15940 Baxter Creek Drive","country":"USA","state":"FL","city":"Jacksonville","postal":"32218","priority":1,"apply_to_type":1},{"lat":"37.5244182","lng":"-99.7625128","id":11681096,"name":"Advance Tint Solutions","phone":"+1 620-682-3754","email":"jordan@advancetintsolutions.com","web":"http:\/\/advancetintsolutions.com","tagsvalue":"Automotive,Architectural,Mobile Service","tags":[{"tag":"Automotive"},{"tag":"Architectural"},{"tag":"Mobile Service"}],"address":"101 Crescent Avenue","country":"USA","state":"KS","city":"Ford","postal":"67842","priority":1,"apply_to_type":1},{"lat":"35.59555539999999","lng":"-106.0824229","id":11681110,"name":"Wicked Tints LLC","phone":"+1 505-946-8010","email":"wickedtints@icloud.com","tagsvalue":"Automotive,Architectural,Paint Protection,Detailing,Mobile Service","tags":[{"tag":"Automotive"},{"tag":"Architectural"},{"tag":"Paint Protection"},{"tag":"Detailing"},{"tag":"Mobile Service"}],"address":"103 Los Pinos Road","country":"USA","state":"NM","city":"Santa Fe","postal":"87507","priority":1,"apply_to_type":1},{"lat":"36.540307","lng":"-87.131861","id":11751038,"name":"Mikey’s Customs","phone":"+1 615-440-6868","email":"mikedickerson97@ymail.com","tagsvalue":"Automotive","tags":[{"tag":"Automotive"}],"address":"3421 Hwy 76","country":"USA","state":"TN","city":"Adams","postal":"37010","priority":1,"apply_to_type":1},{"lat":"33.2825718","lng":"-93.2458508","id":11808037,"name":"Link Auto Sales and Glass","phone":"+1 870-331-4160","tagsvalue":"Automotive,Architectural,Mobile Service","tags":[{"tag":"Automotive"},{"tag":"Architectural"},{"tag":"Mobile Service"}],"address":"1615 N.Vine","country":"USA","state":"AR","city":"Magnolia","postal":"71753","priority":1,"apply_to_type":1},{"lat":"40.10269","lng":"-111.6566635","id":11808038,"name":"Morse Detailing","phone":"+1 801-372-9656","email":"Morsedetailng@gmail.com","web":"http:\/\/www.morsedetailing.com","tagsvalue":"Automotive,Architectural,Paint Protection,Vinyl Wrap,Detailing,Mobile Service","tags":[{"tag":"Automotive"},{"tag":"Architectural"},{"tag":"Paint Protection"},{"tag":"Vinyl Wrap"},{"tag":"Detailing"},{"tag":"Mobile Service"}],"address":"94 West 500 South","address2":"Unit 13","country":"USA","state":"UT","city":"Spanish Fork","postal":"84660","priority":1,"apply_to_type":1},{"lat":"44.7068973","lng":"-94.25379","id":11877272,"name":"Tintwest","phone":"+1 612-910-6783","email":"tintwest.mn@gmail.com","web":"http:\/\/www.tintwestmn.com","tagsvalue":"Automotive,Architectural,Mobile Service","tags":[{"tag":"Automotive"},{"tag":"Architectural"},{"tag":"Mobile Service"}],"address":"6278 Lace Avenue","country":"USA","state":"MN","city":"Glencoe","postal":"55336","priority":1,"apply_to_type":1},{"lat":"30.1529085","lng":"-94.01820690000001","id":11877274,"name":"Windham Auto Protection","phone":"+1 409-769-9067","email":"windhamautoprotection@gmail.com","web":"http:\/\/windhamautoprotection.com","tagsvalue":"Automotive,Architectural,Paint Protection,Vinyl Wrap,Detailing","tags":[{"tag":"Automotive"},{"tag":"Architectural"},{"tag":"Paint Protection"},{"tag":"Vinyl Wrap"},{"tag":"Detailing"}],"address":"2105 N Main Street","country":"USA","state":"TX","city":"Vidor","postal":"77662","priority":1,"apply_to_type":1},{"lat":"40.284863","lng":"-83.71943619999999","id":11877275,"name":"Premier window tint LLC","phone":"+1 937-441-1361","email":"premierwindowtint22@gmail.com","tagsvalue":"Automotive,Architectural,Detailing","tags":[{"tag":"Automotive"},{"tag":"Architectural"},{"tag":"Detailing"}],"address":"7153 county road 5","country":"USA","state":"OH","city":"West Liberty","postal":"43357","priority":1,"apply_to_type":1},{"lat":"33.518953","lng":"-85.4214139","id":11945618,"name":"Glick Protective Films","phone":"+1 931-307-5948","email":"mattglick225@gmail.com","web":"https:\/\/glickprotectivefilms.com\/","tagsvalue":"Automotive,Architectural,Paint Protection,Vinyl Wrap","tags":[{"tag":"Automotive"},{"tag":"Architectural"},{"tag":"Paint Protection"},{"tag":"Vinyl Wrap"}],"address":"2958 Holders Cove Road","country":"USA","state":"TN","city":"Winchester","postal":"37398","priority":1,"apply_to_type":1},{"lat":"41.1010609","lng":"-74.0533749","id":11945619,"name":"Dreamz Auto Spa & Tinting","phone":"+1 845-598-9256","email":"dreamzautospatinting@gmail.com","web":"https:\/\/dreamzautospatinti.wixsite.com\/dreamzautospatinting","tagsvalue":"Automotive,Architectural,Paint Protection,Detailing,Mobile Service","tags":[{"tag":"Automotive"},{"tag":"Architectural"},{"tag":"Paint Protection"},{"tag":"Detailing"},{"tag":"Mobile Service"}],"address":"2 Sydell Lane","country":"USA","state":"NY","city":"Spring Valley","postal":"10977","priority":1,"apply_to_type":1},{"lat":"34.2705898","lng":"-118.7035361","id":11970168,"name":"SoCal Wrap & Tint","phone":"805-526-7928","email":"anthony@socalwrapandtint.com","tagsvalue":"Automotive,Architectural,Paint Protection,Detailing,Mobile Service","tags":[{"tag":"Automotive"},{"tag":"Architectural"},{"tag":"Paint Protection"},{"tag":"Detailing"},{"tag":"Mobile Service"}],"address":"1875 Angus Avenue","address2":"Unit A","country":"USA","state":"CA","city":"Simi Valley","postal":"93063","priority":1,"apply_to_type":1},{"lat":"41.6936911","lng":"-71.5350704","id":12006149,"name":"Premier Tint & Auto Salon","phone":"+1 401-320-8528","email":"premiertintandautosalonri@gmail.com","tagsvalue":"Automotive,Paint Protection,Detailing,Mobile Service","tags":[{"tag":"Automotive"},{"tag":"Paint Protection"},{"tag":"Detailing"},{"tag":"Mobile Service"}],"address":"30 Whitford Street","country":"USA","state":"RI","city":"Coventry","postal":"02816","priority":1,"apply_to_type":1},{"lat":"40.22125279999999","lng":"-76.0993306","id":12061514,"name":"Horst Signs","phone":"+1 717-336-7098","email":"john@horstsigns.com","web":"http:\/\/www.horstsigns.com","tagsvalue":"Automotive,Architectural,Paint Protection,Vinyl Wrap","tags":[{"tag":"Automotive"},{"tag":"Architectural"},{"tag":"Paint Protection"},{"tag":"Vinyl Wrap"}],"address":"2024 N Reading Road","country":"USA","state":"PA","city":"Denver","postal":"17517","priority":1,"apply_to_type":1},{"lat":"40.3739456","lng":"-76.3208519","id":12062251,"name":"Horst Signs","phone":"+1 717-866-8899","email":"matt@horstsigns.com","web":"http:\/\/www.horstsigns.com","tagsvalue":"Automotive,Architectural,Paint Protection,Vinyl Wrap","tags":[{"tag":"Automotive"},{"tag":"Architectural"},{"tag":"Paint Protection"},{"tag":"Vinyl Wrap"}],"address":"450 West Lincoln Avenue","country":"USA","state":"PA","city":"Myerstown","postal":"17067","priority":1,"apply_to_type":1},{"lat":"40.770328","lng":"-73.28684","id":12211606,"name":"No Stress Auto LLC.","phone":"+1 516-416-8626","email":"ericnokaj@icloud.com","tagsvalue":"Automotive,Architectural,Paint Protection,Vinyl Wrap,Detailing,Mobile Service","tags":[{"tag":"Automotive"},{"tag":"Architectural"},{"tag":"Paint Protection"},{"tag":"Vinyl Wrap"},{"tag":"Detailing"},{"tag":"Mobile Service"}],"address":"7 Madison Avenue","country":"USA","state":"NY","city":"Bayshore","postal":"11706","priority":1,"apply_to_type":1},{"lat":"31.0541016","lng":"-88.51758730000002","id":12228333,"name":"Tint Boss Auto Graphics and Gifts, LLC","phone":"+1 601-606-8866","email":"tintbossauto@gmail.com","tagsvalue":"Automotive,Architectural,Paint Protection","tags":[{"tag":"Automotive"},{"tag":"Architectural"},{"tag":"Paint Protection"}],"address":"154 Maudes Drive","country":"USA","state":"MS","city":"Lucedale","postal":"39452","priority":1,"apply_to_type":1},{"lat":"41.2445706","lng":"-88.4159176","id":12362004,"name":"CSI Audio","phone":"+1 815-585-6228","email":"csiaudio33@gmail.com","tagsvalue":"Automotive,Paint Protection,Detailing","tags":[{"tag":"Automotive"},{"tag":"Paint Protection"},{"tag":"Detailing"}],"address":"203 Industry Parkway","address2":"Unit 4","country":"USA","state":"IL","city":"Mazon","postal":"60424","priority":1,"apply_to_type":1},{"lat":"37.702532","lng":"-122.1243708","id":12430518,"name":"R1 Auto Restyling","phone":"+1 510-871-0636","email":"risd8787@gmail.com","tagsvalue":"Automotive,Vinyl Wrap","tags":[{"tag":"Automotive"},{"tag":"Vinyl Wrap"}],"address":"15608 East 14th Street","country":"USA","city":"San Leandro","postal":"94578","priority":1,"apply_to_type":1},{"lat":"30.419715","lng":"-89.34150160000002","id":12484969,"name":"Kleentech AMD Solutions","phone":"+1 228-323-5660","email":"Kleentechautocare@gmail.com","tagsvalue":"Automotive,Paint Protection,Detailing","tags":[{"tag":"Automotive"},{"tag":"Paint Protection"},{"tag":"Detailing"}],"address":"1000 Kiln Delisle Road","address2":"Suite F","country":"USA","state":"MS","city":"Pass Christian","postal":"39571","priority":1,"apply_to_type":1},{"lat":"38.3292098","lng":"-104.7082542","id":12678510,"name":"Altitude Tinting LLC","phone":"+1 719-458-5555","email":"j.aragon@altitudetinting.net","web":"http:\/\/www.altitudetinting.net","tagsvalue":"Automotive,Architectural,Paint Protection,Vinyl Wrap,Mobile Service","tags":[{"tag":"Automotive"},{"tag":"Architectural"},{"tag":"Paint Protection"},{"tag":"Vinyl Wrap"},{"tag":"Mobile Service"}],"address":"811 E. Chemical Drive","country":"USA","state":"CO","city":"Pueblo West","postal":"81007","priority":1,"apply_to_type":1},{"lat":"34.9578869","lng":"-89.9824333","id":12829146,"name":"Tri State Auto Accessories","phone":"+1 662-349-2110","webdisplay":"https:\/\/facebook.com\/tristateautoacc\/","tagsvalue":"Automotive","tags":[{"tag":"Automotive"}],"address":"478 Marathon Way #1","country":"USA","state":"MS","city":"Southaven","postal":"38671","priority":1,"apply_to_type":1},{"lat":"48.1444099","lng":"-103.6299126","id":12886497,"name":"Legends Offroad LLC","phone":"+1 701-570-6675","email":"kevin@thelegendsoffroad.com","tagsvalue":"Automotive,Architectural,Paint Protection,Detailing","tags":[{"tag":"Automotive"},{"tag":"Architectural"},{"tag":"Paint Protection"},{"tag":"Detailing"}],"address":"502 1st Street West","country":"USA","state":"ND","city":"Williston","postal":"58801","priority":1,"apply_to_type":1},{"lat":"28.8304649","lng":"-81.3452484","id":12889256,"name":"Spot On Mobile Detailing","phone":"+1 407-864-9225","tagsvalue":"Automotive,Architectural,Detailing,Mobile Service","tags":[{"tag":"Automotive"},{"tag":"Architectural"},{"tag":"Detailing"},{"tag":"Mobile Service"}],"address":"1538 Thornapple Lane","country":"USA","state":"FL","city":"Sanford","postal":"32771","priority":1,"apply_to_type":1},{"lat":"27.9978802","lng":"-82.02040749999999","id":12889269,"name":"Urban Tint Company","phone":"+1 863-417-6311","email":"info@urbantintcompany.com","web":"http:\/\/www.urbantintcompany.com","tagsvalue":"Automotive,Architectural,Detailing","tags":[{"tag":"Automotive"},{"tag":"Architectural"},{"tag":"Detailing"}],"address":"3645 Airport Commerce Drive","address2":"Suite 4","country":"USA","state":"FL","city":"Lakeland","postal":"33811","priority":1,"apply_to_type":1},{"lat":"41.2091395","lng":"-73.09726719999999","id":13004442,"name":"The Detail Shop LLC","phone":"+1 203-816-8006","email":"info@thedetailshopct.com","web":"https:\/\/thedetailshopct.com","tagsvalue":"Automotive,Paint Protection,Detailing","tags":[{"tag":"Automotive"},{"tag":"Paint Protection"},{"tag":"Detailing"}],"address":"228 Rowe Avenue","address2":"Unit 4","country":"USA","state":"CT","city":"Milford","postal":"06461","priority":1,"apply_to_type":1},{"lat":"42.92135","lng":"-85.8569479","id":13009065,"name":"Signs & Window Tinting","phone":"+1 616-723-3677","email":"glble92@gmail.com","web":"http:\/\/www.signswindowtinting.com","tagsvalue":"Automotive,Architectural,Paint Protection,Vinyl Wrap,Mobile Service","tags":[{"tag":"Automotive"},{"tag":"Architectural"},{"tag":"Paint Protection"},{"tag":"Vinyl Wrap"},{"tag":"Mobile Service"}],"address":"2979 Park N Drive","country":"USA","state":"MI","city":"Jenison","postal":"49428","priority":1,"apply_to_type":1},{"lat":"32.296529","lng":"-81.21106639999999","id":13110258,"name":"KTINT LLC","phone":"+1 912-306-5684","email":"kayshlas@icloud.com","web":"https:\/\/ktint-llc.square.site","tagsvalue":"Automotive,Architectural,Mobile Service","tags":[{"tag":"Automotive"},{"tag":"Architectural"},{"tag":"Mobile Service"}],"address":"423 Sea Breeze Drive","country":"USA","state":"GA","city":"Rincon","postal":"31326","priority":1,"apply_to_type":1},{"lat":"39.3719267","lng":"-76.5108327","id":13321155,"name":"Ideal Image","phone":"410-663-8468","email":"Idealimagepro@gmail.com","web":"https:\/\/www.idealimageautosalonmd.com\/","tagsvalue":"Automotive,Detailing,Vinyl Wrap","tags":[{"tag":"Automotive"},{"tag":"Detailing"},{"tag":"Vinyl Wrap"}],"address":"7901 Belair Road","country":"USA","state":"MD","city":"Nottingham","postal":"21236","priority":1,"apply_to_type":1},{"lat":"40.1572319","lng":"-111.6549867","id":13342966,"name":"Elevated Empire","phone":"+1 801-472-7121","email":"Elevatedempire7121@gmail.com","tagsvalue":"Automotive,Paint Protection,Detailing","tags":[{"tag":"Automotive"},{"tag":"Paint Protection"},{"tag":"Detailing"}],"address":"2498 W 700 S","address2":"Unit 2","country":"USA","state":"UT","city":"Springville","postal":"84663","priority":1,"apply_to_type":1},{"lat":"30.0047741","lng":"-90.250524","id":13380745,"name":"Anchored Designs LLC","phone":"+1 504-329-6255","email":"anchoreddesignsla@gmail.com","web":"http:\/\/www.anchoredwraps.com","tagsvalue":"Automotive,Architectural,Paint Protection,Vinyl Wrap","tags":[{"tag":"Automotive"},{"tag":"Architectural"},{"tag":"Paint Protection"},{"tag":"Vinyl Wrap"}],"address":"1308 Carroll Street","country":"USA","state":"LA","city":"Kenner","postal":"70062","priority":1,"apply_to_type":1},{"lat":"33.2577213","lng":"-86.8013292","id":13456023,"name":"Dark Side of the Sun Tint","phone":"+1 205-739-3248","email":"alabasterwindowtint@outlook.com","tagsvalue":"Automotive,Architectural,Vinyl Wrap","tags":[{"tag":"Automotive"},{"tag":"Architectural"},{"tag":"Vinyl Wrap"}],"address":"300 Wellington Manor Court","address2":"Suite 100","country":"USA","state":"AL","city":"Alabaster","postal":"35007","priority":1,"apply_to_type":1},{"lat":"36.7717649","lng":"-119.8227737","id":13635623,"name":"Executive shade","phone":"+1 559-824-1923","email":"evan.hargrave@icloud.com","web":"http:\/\/executiveshade.com\/","tagsvalue":"Automotive,Architectural,Detailing,Mobile Service","tags":[{"tag":"Automotive"},{"tag":"Architectural"},{"tag":"Detailing"},{"tag":"Mobile Service"}],"address":"923 W Clinton Avenue","country":"USA","state":"CA","city":"Fresno","postal":"93705","priority":1,"apply_to_type":1},{"lat":"34.7442326","lng":"-90.0715744","id":13637197,"name":"Tempest Tints, LLC","phone":"+1 662-209-5186","email":"gdp@tempesttints.com","tagsvalue":"Automotive,Architectural,Paint Protection,Vinyl Wrap","tags":[{"tag":"Automotive"},{"tag":"Architectural"},{"tag":"Paint Protection"},{"tag":"Vinyl Wrap"}],"address":"4610 Wheeler Road","country":"USA","state":"MS","city":"Hernando","postal":"38632","priority":1,"apply_to_type":1},{"lat":"30.6651557","lng":"-88.5053983","id":13668920,"name":"KN Detailing","phone":"+1 228-217-2197","email":"kndetailing228@outlook.com","tagsvalue":"Automotive,Architectural,Paint Protection,Vinyl Wrap,Detailing","tags":[{"tag":"Automotive"},{"tag":"Architectural"},{"tag":"Paint Protection"},{"tag":"Vinyl Wrap"},{"tag":"Detailing"}],"address":"6205 Mccormack Road","country":"USA","state":"MS","city":"Moss Point","postal":"39562","priority":1,"apply_to_type":1},{"lat":"29.6303121","lng":"-95.5062634","id":13782169,"name":"Highland Auto Solutions","phone":"+1 346-283-6034","email":"windowtint@highlandautosolutions.com","web":"http:\/\/highlandautosolutions.com\/window-tint","tagsvalue":"Automotive,Mobile Service","tags":[{"tag":"Automotive"},{"tag":"Mobile Service"}],"address":"14639 S Main Street","country":"USA","state":"TX","city":"Houston","postal":"77085","priority":1,"apply_to_type":1},{"lat":"33.518953","lng":"-85.4214139","id":13814282,"name":"Auto Shield Solutions","phone":"+1 601-913-4807","email":"autoshieldsolutions@gmail.com","tagsvalue":"Automotive,Architectural,Mobile Service","tags":[{"tag":"Automotive"},{"tag":"Architectural"},{"tag":"Mobile Service"}],"address":"404 Copper Ridge Drive","country":"USA","state":"MS","city":"Florence","postal":"39073","priority":1,"apply_to_type":1},{"lat":"28.98023","lng":"-82.079082","id":13911786,"name":"Prime Shine Auto Detailing","phone":"+1 954-594-1043","email":"torresc4221@gmail.com","tagsvalue":"Automotive,Paint Protection,Detailing,Mobile Service","tags":[{"tag":"Automotive"},{"tag":"Paint Protection"},{"tag":"Detailing"},{"tag":"Mobile Service"}],"address":"4120 SE HWY 42","country":"USA","state":"FL","city":"Summerfield","postal":"34491","priority":1,"apply_to_type":1},{"lat":"40.2907467","lng":"-84.37107519999999","id":13975770,"name":"Hiatt's Details and Rentals","phone":"+1 937-295-5268","email":"hiattsllc@gmail.com","web":"https:\/\/www.facebook.com\/HiattsLLC\/","tagsvalue":"Automotive,Architectural,Detailing,Mobile Service","tags":[{"tag":"Automotive"},{"tag":"Architectural"},{"tag":"Detailing"},{"tag":"Mobile Service"}],"address":"6458 SR-66","country":"USA","state":"OH","city":"Fort Loramie","postal":"45845","priority":1,"apply_to_type":1}]